latitude,longitude,name
24.6994716,46.6899776,Al Nokhba Clinics
24.7165614,46.6815365,Alshablan Medical Center
24.6793946,46.7270653,المستشفي الوطني
24.68704,46.7972478,
24.77919,46.7395065,مستشفى أستر سند
24.820636,46.9211311,
24.7468295,46.6521263,دلة
24.5833126,46.864015,
24.6712998,46.7330847,مستوصف عالم الطب
24.7588555,46.7350982,مركز اباس الطبي
24.69339,46.6785028,KAL Medical Development Foundation
24.9912678,46.2090413,
24.7513374,46.6998881,Dr Soliman Al-Kharashi Medical Center
24.7991145,46.7832812,
24.7983522,46.7819482,فال العافية
24.7370258,46.8306893,مركز فيتامين الطبي
24.7335576,46.8476305,مستوصف الشمال الطبي
24.6100189,46.7280761,مجمع طب الاسرة 2
24.6896885,46.6511806,مجمع نون الطبي Noon Medical Clinic
24.6018367,46.7020164,
24.6566664,46.706969,مستشفى المبارك
24.80364,46.7947663,مجمع عيادات اللوتس
24.8103493,46.7908317,مستوصف اليرموك
24.78625,46.8019821,الفارابي
24.761813,46.7809509,مستوصف الراية
24.6940156,46.7727851,Hayat National Hospital
24.6191751,46.7292391,مستشفى الفلاح
24.7030098,46.8056634,Al Malak Dental Clinic
24.6022144,46.7030747,Hammadi suwadi
24.7488786,46.8463748,jmcim ace
24.7779808,46.5904055,مستوصف حكومي
24.6054567,46.7111626,مجمع الوطن الطبي
24.6450027,46.7037899,بشير عبيد لطب الاسنان
24.7040495,46.7807863,مجمع الريان الطبي
24.6735627,46.7549046,Jarir Medical Center
24.4009602,46.8351733,مستوصف الحاير
24.6755467,46.661891,المجمع الطبي
24.7682894,46.7898996,الرعايه الأوليه. حي الخليج
24.5288033,46.6527136,مستشفى الأمام عبدالرحمن الفيصل
24.6807943,46.6922882,مختبر البرج الطبي
24.6278072,46.6903989,مستشفى الشميسي
24.8287332,46.6921323,مركز الملك فهد الوطني لسرطان الاطفال
24.799636,46.7897999,مركز اشبيليا
24.7621775,46.7635735,مجمع العالمي الطبي
24.6326975,46.7104187,
24.680726,46.6922446,مختبر البرج الطبي
24.6035617,46.7029077,مستوصف حراء الطبي
24.6854251,46.6849796,الخلد اخصائي عيون واسنان
24.6640318,46.7171387,
24.6138392,46.698579,مركز الصحي عسير
24.5623363,46.5402127,مركز صحي
24.5859269,46.6798455,مستوصف الخليجي الطبي بشبرا
24.8009724,46.8715477,مستشفي عناية العائلة
24.7037444,46.8017677,مستشفى السلام
24.6614297,46.7200284,مستشفى الملك عبدالعزيز الجامعي
24.6708929,46.6781378,الطوارئ
24.4636479,46.2794491,مركز صحي المزاحمية
24.7191157,46.6569223,مستشفى د.سليمان الحبيب
24.7043587,46.6766773,مستشفى د.سليمان الحبيب
24.6714995,46.6775189,مبنى العيادات الخارجية
24.6718644,46.6767299,مبنى عيادة الأورام
24.6722421,46.6764375,مركز الأبحاث
24.671922,46.6753844,البرج الشمالي
24.6704529,46.6765256,بنك الدم
24.6696879,46.6773498,المدخل الرئيسي
24.663358,46.6832163,مستشفى الدارة
24.8629022,46.5873739,alhabib hospital
24.6788288,46.7760564,صفوة المهيدب - فرع الربوة
24.6944418,46.7902221,عيادات سما
24.7643252,46.7612248,مركز العلم الطبي
24.6859304,46.7664237,مستوصف الطب الحديث
24.7444413,46.7049682,Future Medical Center
24.6363365,46.5369782,عيادات أصداء الصحة الطبي
24.7490256,46.7783486,عيادات الصبحي
24.8140015,46.6322,مراس
24.8141382,46.6325151,مركز فيتامين الطبي
24.8113146,46.6469927,وايت كلينيك
24.8111448,46.6470775,رويال أورثوبيدك
24.7966039,46.6382454,مجمع توكير الطبي
24.7985455,46.6431455,عيادات الماسي
24.5600138,46.5850458,NAMAR MEDICAL COMPLEX
24.7880082,46.6973078,مركز الرعايه الصحيه الأوليه (الوادي)
24.6777697,46.6776076,المركز الوطني للحساسية و الربو و المناعة
24.7497124,46.8539965,مستشفى الحرس
24.7873592,46.7327316,Mouwasat Hospital
24.785449,46.7170071,مركز صحي الإزدهار
24.7738902,46.7849257,HAMC
24.7826837,46.7452124,مغربي
24.7276727,46.6888869,Almawed Medical Center
24.7277116,46.6888815,Almawed Medical Center
24.6311913,46.7531419,
24.7703329,46.6046594,Dr. Sulaiman Al Habib
24.80805,46.862444,الجنادرية الشرقية
24.563162,46.841807,مستشفى رابية الطبي
24.708796,46.793229,مستشفى الامير محمد بن عبد العزيز
24.7280318,46.7679153,مستشفى الثميري
24.6893312,46.7547905,مركز الملك سلمان لامراض الكلى
24.749248,46.832551,مركز الرعاية الصحية الأولية بالنسيم الشرقي
24.705275,46.695734,مركز الرعاية الصحية الأولية بالسليمانية
24.797495,46.851917,الجنادرية الغربية
24.805567,46.763133,اليرموك الغربي
24.6152545,46.6751099,مجمع العارض الطبي
24.7108511,46.6703266,مجمع الدكتور يوسف المقبل لطب العيون
24.6852067,46.6759587,عيادة إنجاب
24.6851786,46.6760183,عيادات كلير
24.6869865,46.7043775,مدينة الملك فهد الطبية
24.7878449,46.6599897,Kesay
24.7416181,46.8154841,مجمع الثويني الطبي
24.7228842,46.6540788,مستشفى د. سليمان الحبيب لصحة المرأه
24.7877964,46.5586201,Al dyrian
24.9890758,46.5233633,مدينة الامير سلطان بن عبدالعزيز للخدمات الانسانية
24.694158,46.6371628,مستشفى الملك خالد التخصصي للعيون
24.6876403,46.7052808,مدينة الملك فهد الطبية
24.7018729,46.6864475,مستشفى الدكتور عبد الرحمن المشاري
24.7164476,46.7938769,Al Yamama Hospital
24.7011332,46.7801925,رعاية الرياض
24.6718028,46.6747477,مستشفى الملك فيصل التخصصي
24.7497385,46.8560712,King Fahad Hospital
24.7113715,46.621363,مبنى الطوارئ - مستشفى الملك خالد الجامعي
24.7140601,46.6227151,وحدة العناية المركزة - مستشفى الملك خالد الجامعي
24.8014554,46.6546255,مستشفى المملكة
24.6786386,46.735813,
24.5846736,46.5928732,مستشفى الأسرة الدولي
24.8008589,46.6284292,المستشفى السعودي الالماني
24.5929028,46.7801885,
24.6022524,46.7030558,مستشفى الحمادي
24.6278407,46.6904771,مدينة الملك سعود الطبية
24.7191008,46.6034004,مستشفى الصحة النفسية
24.6068129,46.6419675,مستشفى الملك سلمان
24.7180278,46.6389908,KACSU's Clinic
24.828705,46.6920647,مركز الملك فهد الوطني لأورام الأطفال
24.7792224,46.6392988,
24.7513959,46.8612576,Medical City
24.9303666,46.5843268,
24.5844794,46.8105466,مستشفى النقاهة
24.6927272,46.5847354,مستشفى عرقة
24.679214,46.7247709,مستشفى قوى الامن
24.5608435,46.6763687,مستشفى دله - نمار
24.6520282,46.7608027,
24.7396328,46.7979542,
24.7377198,46.7483232,
24.6640253,46.7167212,
24.6021591,46.6280771,مركز الرعاية الصحية الأولية حي العريجاء الأوسط
24.486058,46.6009889,مستوصف حي قرطبة
24.5785667,46.6048707,مستشفى الجافل
24.7211226,46.7749575,مستشفى الدكتور سليمان الحبيب
24.7191132,46.6568967,مستشفى الدكتور سليمان الحبيب
24.5673318,46.6408678,مستشفى الدكتور سليمان الحبيب
24.7044673,46.6767981,مستشفى الدكتور سليمان الحبيب
24.7046605,46.6774501,مجمع الحبيب - الجلدية والعيون
24.7039899,46.6777708,مجمع الحبيب - النساء والولادة
24.7034848,46.6780781,مجمع الحبيب - العظام والعامود الفقري
24.6004075,46.7375895,مستشفى الإيمان العام
24.6706366,46.6811395,مستشفى الملك فيصل التخصصي الجناح الشرقي
24.7478518,46.5691834,
24.5280614,46.6529713,
24.7789466,46.7396935,
24.7705018,46.7441942,
24.7519734,46.880909,PMO Hospital
24.8365259,46.7220996,مستشفى الملك عبدالله الجامعي
24.6922035,46.7142624,مدينة الأمير سلطان الطبية العسكرية
24.7273856,46.6465948,Almuhammadiyah Clinic
24.7201378,46.6568267,مستشفى الدكتور سليمان الحبيب
24.6728825,46.7442443,مجمع عيادات الممتاز الطبي
24.6575115,46.7318298,
24.657557,46.7305841,
24.7033986,46.6583696,
24.7530404,46.7197319,عيادات روضة الأقصى الطبي ٢
24.7489837,46.6672943,مجمع عيادات دنت الطبي للاسنان والجلدية
24.6609349,46.719072,مستشفى الملك عبدالعزيز الجامعي
24.657081,46.7314864,
24.6571719,46.7318181,
24.7601318,46.6720066,مجموعة هاو الطبية
24.8597444,46.6424914,مستشفى دلة العارض
24.7289968,46.8813482,
24.7148124,46.6226138,D.U.H
24.8563115,46.6390141,مستشفى آمــاد
